[
    {
        "imgURL": "./pictures/Buddy.jpg",
        "name": "Buddy",
        "age": "4 months",
        "breed": "Beagle",
        "email": "buddythebeagle@gmail.com",
        "description": "Buddy is an eager beagle who loves to hunt.",
        "lat": "36.018330",
        "lng": "-78.909087"
    },
    {
        "imgURL": "./pictures/Bandit.jpg",
        "name": "Bandit",
        "age": "4 years",
        "breed": "Boxer",
        "email": "bandittheboxer@gmail.com",
        "description": "Bandit is always getting into trouble! He loves playing with the neighbor dogs.",
        "lat": "35.834742",
        "lng": "-78.832850"
    },
    {
        "imgURL": "./pictures/Bear.jpg",
        "name": "Bear",
        "age": "7 months",
        "breed": "Bulldog",
        "email": "bearthebulldog@gmail.com",
        "description": "Bear is a mighty warrior who never shies from danger. Unless it's a cat.",
        "lat": "35.941240",
        "lng": "-79.021085"
    },
    {
        "imgURL": "./pictures/Clide.jpg",
        "name": "Clide",
        "age": "8 years",
        "breed": "Corgi",
        "email": "clidethecorgi@gmail.com",
        "description": "Clide is a Corgi. He loves dressing up in outfits.",
        "lat": "35.787605",
        "lng": "-78.637600"
    },
    {
        "imgURL": "./pictures/Dixie.jpg",
        "name": "Dixie",
        "age": "3 years",
        "breed": "Dachshund",
        "email": "dixiethedachshund@gmail.com",
        "description": "Dixie loves spaghetti and backrubs.",
        "lat": "35.780615",
        "lng": "-78.792634"
    },
    {
        "imgURL": "./pictures/Gunner.jpg",
        "name": "Gunner",
        "age": "5 months",
        "breed": "German Shepherd",
        "email": "gunnerthegermanshepherd@gmail.com",
        "description": "Gunner is a loyal protector of his family.",
        "lat": "35.873231",
        "lng": "-78.679638"
    },
    {
        "imgURL": "./pictures/Gloria.jpg",
        "name": "Gloria",
        "age": "4 months",
        "breed": "Golden Retriever",
        "email": "gloriathegoldenretriever@gmail.com",
        "description": "Gloria is a beautiful golden retriever. She loves playing with children.",
        "lat": "35.958443",
        "lng": "-78.939020"
    },
    {
        "imgURL": "./pictures/Henry.jpg",
        "name": "Henry",
        "age": "4 months",
        "breed": "Husky",
        "email": "henrythehusky@gmail.com",
        "description": "Henry is always getting into trouble. Give him an opening and he will take it.",
        "lat": "36.038050",
        "lng": "-78.913048"
    },
    {
        "imgURL": "./pictures/Lance.jpg",
        "name": "Lance",
        "age": "7 months",
        "breed": "Labrador Retriever",
        "email": "lancethelabradorretriever@gmail.com",
        "description": "Lance is a loyal lab. He's a friendly dog who loves children.",
        "lat": "36.070068",
        "lng": "-79.099732"
    },
    {
        "imgURL": "./pictures/Princess.jpg",
        "name": "Princess",
        "age": "15 months",
        "breed": "Poodle",
        "email": "princessthepoodle@gmail.com",
        "description": "Princess is an elegant poodle who loves getting her fur brushed.",
        "lat": "35.903772",
        "lng": "-79.091335"
    },
    {
        "imgURL": "./pictures/Peanut.jpg",
        "name": "Peanut",
        "age": "11 months",
        "breed": "Pug",
        "email": "peanutthepug@gmail.com",
        "description": "Peanut always has a smile on his face.",
        "lat": "35.656007",
        "lng": "-78.835750"
    },
    {
        "imgURL": "./pictures/Rocky.jpg",
        "name": "Rocky",
        "age": "3 years",
        "breed": "Rottweiler",
        "email": "rockytherottweiler@gmail.com ",
        "description": "Rocky is a brute. He's always scaring away the mailman.",
        "lat": "35.791256",
        "lng": "-78.484333"
    },
    {
        "imgURL": "./pictures/Tinkerbell.jpg",
        "name": "Tinkerbell",
        "age": "9 years",
        "breed": "Terrier",
        "email": "tinkerbelltheterrier@gmail.com",
        "description": "Tinkerbell loves to chase cats and eat garbage.",
        "lat": "36.016580",
        "lng": "-78.984278"
    }
]